[
  {
    "name": "Cabrita Alegre",
    "isActive": "TRUE",
    "instagram": "cabritalegre",
    "website": "https://cabritaalegre.cl/",
    "district": "Ñuñoa",
    "address": "Pucará 4311",
    "labels": "tienda",
    "lat": -33.4567,
    "lng": -70.5956
  },
  {
    "name": "Verde Sazón",
    "isActive": "TRUE",
    "instagram": "verdesazonchile",
    "website": "https://verdesazon.cl/",
    "district": "Providencia",
    "address": "Miguel Claro 1873",
    "labels": "bar, restaurant",
    "lat": -33.4298,
    "lng": -70.6107
  },
  {
    "name": "Rita Roux",
    "isActive": "TRUE",
    "instagram": "ritarouxcafe",
    "website": "https://www.ritaroux.cl/",
    "district": "Vitacura",
    "address": "Juan Bautista Pastene 2827",
    "labels": "café",
    "lat": -33.3856,
    "lng": -70.5689
  },
  {
    "name": "Tienda Organica",
    "isActive": "TRUE",
    "instagram": "organica_cafe_tienda",
    "website": "https://tiendaorganica.cl/",
    "district": "Providencia",
    "address": "El Aguilucho 3537",
    "labels": "tienda",
    "lat": -33.4234,
    "lng": -70.6089
  },
  {
    "name": "Central Organica",
    "isActive": "TRUE",
    "instagram": "centralorganica.cl",
    "website": "",
    "district": "Las Condes",
    "address": "MUT, piso -2",
    "labels": "tienda",
    "lat": -33.4149,
    "lng": -70.5849
  },
  {
    "name": "La Pastora",
    "isActive": "TRUE",
    "instagram": "lapastoracoffee",
    "website": "",
    "district": "Providencia",
    "address": "Antonio Varas 1480",
    "labels": "café",
    "lat": -33.4312,
    "lng": -70.6198
  },
  {
    "name": "Felix Café",
    "isActive": "TRUE",
    "instagram": "felixcafe.cl",
    "website": "",
    "district": "Providencia",
    "address": "Coyancura 2223",
    "labels": "café",
    "lat": -33.4321,
    "lng": -70.6134
  },
  {
    "name": "Fabula Restaurant",
    "isActive": "TRUE",
    "instagram": "fabulabysalvaje",
    "website": "",
    "district": "Santiago",
    "address": "Merced 346",
    "labels": "restaurant, bar",
    "lat": -33.4378,
    "lng": -70.6489
  },
  {
    "name": " Café Cabra Tostaduría ",
    "isActive": "TRUE",
    "instagram": "cafecabra",
    "website": "",
    "district": "Maipú",
    "address": "El Olimpo 735",
    "labels": "café",
    "lat": -33.5234,
    "lng": -70.7567
  },
  {
    "name": "Buen Campo",
    "isActive": "TRUE",
    "instagram": "buencampo",
    "website": "https://buencampo.cl/",
    "district": "Providencia",
    "address": "José Manuel Infante 1728",
    "labels": "tienda",
    "lat": -33.4498,
    "lng": -70.6234
  },
  {
    "name": "Bakery To Go",
    "isActive": "TRUE",
    "instagram": "bakerytogo_cl",
    "website": "https://www.bakerytogo.cl/",
    "district": "Providencia",
    "address": "Miguel Claro 2101",
    "labels": "panadería",
    "lat": -33.4289,
    "lng": -70.6089
  },
  {
    "name": "Le Boletó",
    "isActive": "TRUE",
    "instagram": "leboleto",
    "website": "https://www.leboleto.cl/",
    "district": "Providencia",
    "address": "Obispo Donoso 044 A",
    "labels": "café",
    "lat": -33.43792501600418,
    "lng": -70.62844916931412
  },
  {
    "name": "Bipolar Café",
    "isActive": "TRUE",
    "instagram": "_bipolar_cafe",
    "website": "",
    "district": "Providencia",
    "address": "Valenzuela Castillo 1291",
    "labels": "café",
    "lat": -33.4360636,
    "lng": -70.6213906
  },
  {
    "name": "El Hornero Panadería",
    "isActive": "TRUE",
    "instagram": "hornero.panaderia",
    "website": "",
    "district": "Maipú",
    "address": "La Fortuna 520 Local 6",
    "labels": "panadería",
    "lat": -33.52315288892958,
    "lng": -70.76535307179797
  },
  {
    "name": "Mayal Granel ",
    "isActive": "TRUE",
    "instagram": "mayalgranel",
    "website": "https://mayalgranel.cl/",
    "district": "Maipú",
    "address": "Central Gonzalo Pérez Llona 200",
    "labels": "tienda",
    "lat": -33.5001693,
    "lng": -70.7550627
  },
  {
    "name": "Unclub Café",
    "isActive": "TRUE",
    "instagram": "unclubcafe",
    "website": "",
    "district": "Providencia",
    "address": "Ramón Carnicer 65",
    "labels": "café",
    "lat": -33.4401193,
    "lng": -70.6328654
  },
  {
    "name": "El Poroto Gordo",
    "isActive": "TRUE",
    "instagram": "elporotogordo",
    "website": "",
    "district": "Ñuñoa",
    "address": "Av. Irarrazaval 1376",
    "labels": "tienda",
    "lat": -33.4528688,
    "lng": -70.6164044
  },
  {
    "name": "Bar La Isla",
    "isActive": "TRUE",
    "instagram": "barlaisla.scl",
    "website": "",
    "district": "Providencia",
    "address": "Av. Providencia 1100",
    "labels": "bar",
    "lat": -33.4298154,
    "lng": -70.6227663
  },
  {
    "name": "Pícara Pájara Pizzería",
    "isActive": "TRUE",
    "instagram": "picarapajara",
    "website": "",
    "district": "San Miguel",
    "address": "Octava Avenida 1201",
    "labels": "restaurant",
    "lat": -33.51061,
    "lng": -70.6602125
  },
  {
    "name": "Perritos Chao",
    "isActive": "TRUE",
    "instagram": "perritos_chao",
    "website": "https://www.perritoschao.cl/",
    "district": "Ñuñoa",
    "address": "Avenida Italia 1853",
    "labels": "restaurant",
    "lat": -33.4514417,
    "lng": -70.623742
  },
  {
    "name": "Veggie Lunch",
    "isActive": "TRUE",
    "instagram": "veggielunchveg",
    "website": "https://www.veggielunch.cl/",
    "district": "Ñuñoa",
    "address": "José Domingo Cañas 386",
    "labels": "restaurant",
    "lat": -33.4563876,
    "lng": -70.6170976
  },
  {
    "name": "Alma Vegan Food",
    "isActive": "TRUE",
    "instagram": "almafood.cl",
    "website": "",
    "district": "Las Condes",
    "address": "MUT, piso -2",
    "labels": "restaurant",
    "lat": -33.41753889131629,
    "lng": -70.60071539084632
  },
  {
    "name": "Pandias Kitchen ",
    "isActive": "TRUE",
    "instagram": "pandiaskitchen",
    "website": "https://www.pandiaskitchen.cl/",
    "district": "Providencia",
    "address": "Los Leones 0156",
    "labels": "restaurant",
    "lat": -33.422019,
    "lng": -70.6085607
  },
  {
    "name": "Café Tsiluba",
    "isActive": "TRUE",
    "instagram": "cafetsiluba",
    "website": "",
    "district": "La Cisterna",
    "address": "Av. Fernández Albano 196",
    "labels": "café",
    "lat": -33.5260978,
    "lng": -70.6478584
  },
  {
    "name": "Huggo comedor",
    "isActive": "TRUE",
    "instagram": "huggocomedor",
    "website": "",
    "district": "Providencia",
    "address": "Dr. Luis Middleton 1698",
    "labels": "restaurant",
    "lat": -33.4268638,
    "lng": -70.6148425
  },
  {
    "name": "Tostaduría Dulce Vida",
    "isActive": "TRUE",
    "instagram": "tostaduriadulcevida",
    "website": "",
    "district": "Ñuñoa",
    "address": "Av. Irarrazaval 1520-B",
    "labels": "tienda",
    "lat": -33.453846,
    "lng": -70.6082618
  },
  {
    "name": "Bask sushi",
    "isActive": "TRUE",
    "instagram": "basksushi",
    "website": "",
    "district": "Santiago",
    "address": "Padre Luis de Valdivia 327",
    "labels": "restaurant",
    "lat": -33.4388549,
    "lng": -70.6416133
  },
  {
    "name": "Café Magnolia",
    "isActive": "TRUE",
    "instagram": "cafemagnolia.cl",
    "website": "",
    "district": "San Miguel",
    "address": "Magdalena Vicuña 1399",
    "labels": "café",
    "lat": -33.4803497,
    "lng": -70.6516532
  },
  {
    "name": "Greenbook café",
    "isActive": "TRUE",
    "instagram": "cafe_greenbook",
    "website": "",
    "district": "Santiago",
    "address": "Huerfanos 669",
    "labels": "café",
    "lat": -33.4388847,
    "lng": -70.6465667
  },
  {
    "name": "La Compañía ",
    "isActive": "TRUE",
    "instagram": "lacompania_cl",
    "website": "https://la-compania.cl/",
    "district": "Providencia",
    "address": "Pedro Lautaro Ferrer 3460",
    "labels": "café",
    "lat": -33.4449461,
    "lng": -70.6032681
  },
  {
    "name": "Aliwen",
    "isActive": "TRUE",
    "instagram": "emporioaliwen",
    "website": "",
    "district": "Valparaíso",
    "address": "Los Aromos 329 Llo-lleo",
    "labels": "tienda",
    "lat": -33.61031830457516,
    "lng": -71.61093880803007
  },
  {
    "name": "Black Mamba",
    "isActive": "TRUE",
    "instagram": "cafeblackmamba",
    "website": "",
    "district": "Providencia",
    "address": "Eliodoro Yáñez 1228, local 104, Providencia",
    "labels": "café",
    "lat": -33.43313293438412,
    "lng": -70.6180180320587
  },
  {
    "name": "Panadería Madeleine",
    "isActive": "TRUE",
    "instagram": "madeleine.panaderia",
    "website": "",
    "district": "Ñuñoa",
    "address": "Condell 1636",
    "labels": "panadería",
    "lat": -33.4495412,
    "lng": -70.6249935
  },
  {
    "name": "El Rezo Café",
    "isActive": "TRUE",
    "instagram": "el_rezo_cafe",
    "website": "",
    "district": "Pichilemu",
    "address": "Punta de lobos",
    "labels": "café",
    "lat": -34.38614081194063,
    "lng": -72.01157066521914
  },
  {
    "name": "La Popular Infante",
    "isActive": "TRUE",
    "instagram": "@lapopularpizzaypan",
    "website": "",
    "district": "Providencia",
    "address": "José Manuel Infanta 1232",
    "labels": "restaurant, panadería, tienda",
    "lat": -33.4422556321033,
    "lng": -70.61956985830913
  },
  {
    "name": "La Popular Bilbao",
    "isActive": "TRUE",
    "instagram": "@lapopularpizzaypan",
    "website": "",
    "district": "Providencia",
    "address": "Av Francisco Bilbao 2793",
    "labels": "tienda, panadería, restaurant",
    "lat": -33.435974,
    "lng": -70.5935293
  },
  {
    "name": "Drip Café",
    "isActive": "TRUE",
    "instagram": "@drip.cafe.scl",
    "website": "",
    "district": "Santiago",
    "address": "Arturo Pratt 33",
    "labels": "café",
    "lat": -33.44507259636146,
    "lng": -70.64993433492798
  },
  {
    "name": "Café Planta",
    "isActive": "TRUE",
    "instagram": "@plantacafe__",
    "website": "",
    "district": "Santiago",
    "address": "Maipú 330",
    "labels": "café",
    "lat": -33.4419646,
    "lng": -70.6766371
  },
  {
    "name": "Justicia Café",
    "isActive": "TRUE",
    "instagram": "@justiciacafe",
    "website": "",
    "district": "Santiago",
    "address": "1er piso Biblioteca Nacional.",
    "labels": "café",
    "lat": -33.442248621805035,
    "lng": -70.64543538475289
  },
  {
    "name": "Infiltrados",
    "isActive": "TRUE",
    "instagram": "@infiltrados_coffee",
    "website": "",
    "district": "San Fernando",
    "address": "Rancagua 709",
    "labels": "café",
    "lat": -34.58690021698294,
    "lng": -70.98276771080562
  },
  {
    "name": "Dulce Espiga",
    "isActive": "TRUE",
    "instagram": "@dulceespiga.cl",
    "website": "",
    "district": "San José del Maipo",
    "address": "Camino el volcán 10751",
    "labels": "panadería",
    "lat": -33.58341731365018,
    "lng": -70.39792095221011
  },
  {
    "name": "Halteros",
    "isActive": "TRUE",
    "instagram": "@centro_entrenamiento_halteros",
    "website": "",
    "district": "San Miguel",
    "address": "Curiñaca 843",
    "labels": "gimnasio",
    "lat": -33.48950154862435,
    "lng": -70.64503959639327
  },
  {
    "name": "Cazta Delicatasen",
    "isActive": "TRUE",
    "instagram": "@lacastadelicatessen",
    "website": "",
    "district": "La Reina",
    "address": "Av. Larraín 5972",
    "labels": "tienda",
    "lat": -33.4531116,
    "lng": -70.5683509
  },
  {
    "name": "Tienda Granjero La Concepcíón",
    "isActive": "TRUE",
    "instagram": "@granjerocl",
    "website": "",
    "district": "Providencia",
    "address": "La Concepción 167",
    "labels": "tienda",
    "lat": -33.4241498,
    "lng": -70.616107
  },
  {
    "name": "Tienda Granjero Pedro de Valdivia",
    "isActive": "TRUE",
    "instagram": "@granjerocl",
    "website": "",
    "district": "Providencia",
    "address": "Av. Providencia 1986",
    "labels": "tienda",
    "lat": -33.4319448,
    "lng": -70.624785
  },
  {
    "name": "Tienda Granjero Bilbao",
    "isActive": "TRUE",
    "instagram": "@granjerocl",
    "website": "",
    "district": "Providencia",
    "address": "Av. Francisco Bilbao 721",
    "labels": "tienda",
    "lat": -33.4407625,
    "lng": -70.6230765
  },
  {
    "name": "Panadería La Semilla",
    "isActive": "TRUE",
    "instagram": "@pansemilla",
    "website": "",
    "district": "Ñuñoa",
    "address": "Hamburgo  1035",
    "labels": "panadería",
    "lat": -33.4448748,
    "lng": -70.5771137
  },
  {
    "name": "Mirlo",
    "isActive": "TRUE",
    "instagram": "@mirlo_scl",
    "website": "",
    "district": "Providencia",
    "address": "Bravo 960",
    "labels": "café",
    "lat": -33.4339978,
    "lng": -70.6224546
  },
  {
    "name": "Esencia Organica",
    "isActive": "TRUE",
    "instagram": "@esen.organica",
    "website": "",
    "district": "Providencia",
    "address": "Amapolas 1515, local 3",
    "labels": "tienda",
    "lat": -33.429558488349855,
    "lng": -70.59052561413094
  },
  {
    "name": "Café Nuk",
    "isActive": "TRUE",
    "instagram": "@cafenuk",
    "website": "",
    "district": "Providencia",
    "address": "Las Urbinas 31",
    "labels": "café",
    "lat": -33.422058,
    "lng": -70.6121726
  },
  {
    "name": "Emporio Organika",
    "isActive": "TRUE",
    "instagram": "@emporioorganika",
    "website": "",
    "district": "Melipilla",
    "address": "Arturo Pratt 678",
    "labels": "tienda",
    "lat": -33.9820495,
    "lng": -71.4579228
  },
  {
    "name": "Microcafé",
    "isActive": "TRUE",
    "instagram": "@lamicrocafe",
    "website": "",
    "district": "Peñalolén",
    "address": "Comunidad ecológica",
    "labels": "café",
    "lat": -33.4886616,
    "lng": -70.5308733
  },
  {
    "name": "Fase 4",
    "isActive": "TRUE",
    "instagram": "@fase.cuatro",
    "website": "",
    "district": "Recoleta",
    "address": "Capitán Ignacio Carrera Pinto 1223",
    "labels": "bar",
    "lat": -33.3807542,
    "lng": -70.6560069
  },
  {
    "name": "Wallys",
    "isActive": "TRUE",
    "instagram": "@wallyschile.",
    "website": "",
    "district": "Providencia",
    "address": "Pérez Valenzuela 1231",
    "labels": "restaurant",
    "lat": -33.4241453,
    "lng": -70.618987
  }
]